,Geography,2001,2002,2003,2004,2005,2006,2007,2008,2009,2010,2011,2012,2013,2014,2015,2016,2017,2018,2019,2020,city_name,lat,lon,diff_2002,diff_2003,diff_2004,diff_2005,diff_2006,diff_2007,diff_2008,diff_2009,diff_2010,diff_2011,diff_2012,diff_2013,diff_2014,diff_2015,diff_2016,diff_2017,diff_2018,diff_2019
2,"St. John's (CMA), Newfoundland and Labrador",176468,177626,179026,181059,181720,183847,186173,189575,193867,198553,202376,204537,206257,208228,209191,211003,212144,212344,213204,214014,"St. John's, Newfoundland and Labrador",47.5615096,-52.7125768,1158,1400,2033,661,2127,2326,3402,4292,4686,3823,2161,1720,1971,963,1812,1141,200,860
3,"Halifax (CMA), Nova Scotia",369252,374445,378091,380752,381940,384658,386402,389919,393688,398356,402074,404376,405598,407061,408017,414015,421713,429895,439529,448544,"Halifax, Nova Scotia",44.64876350000001,-63.5752387,5193,3646,2661,1188,2718,1744,3517,3769,4668,3718,2302,1222,1463,956,5998,7698,8182,9634
4,"Moncton (CMA), New Brunswick",123093,124560,126103,127702,128823,130507,132060,133860,136211,138425,140698,142871,144217,145708,146367,148467,150438,152560,155870,158695,"Moncton, New Brunswick",46.0878165,-64.7782313,1467,1543,1599,1121,1684,1553,1800,2351,2214,2273,2173,1346,1491,659,2100,1971,2122,3310
5,"Saint John (CMA), New Brunswick",127363,127031,126858,126702,126186,126151,126700,127554,128691,129425,129927,129755,129196,128543,128282,128926,129483,130250,131050,131772,"Saint John, New Brunswick",45.2733153,-66.06330799999999,-332,-173,-156,-516,-35,549,854,1137,734,502,-172,-559,-653,-261,644,557,767,800
6,"Saguenay (CMA), Quebec",162956,161506,160394,159504,158483,158043,158111,158707,158938,159636,160290,161168,161452,161387,161381,161450,161694,162064,162551,163354,"Saguenay, Quebec",48.4280529,-71.0684923,-1450,-1112,-890,-1021,-440,68,596,231,698,654,878,284,-65,-6,69,244,370,487
7,"Québec (CMA), Quebec",705206,710234,714530,718698,723340,729611,738487,748407,758345,768374,777938,783796,789275,794411,799046,804875,810125,816931,825150,832328,"Québec, Quebec",46.8138783,-71.2079809,5028,4296,4168,4642,6271,8876,9920,9938,10029,9564,5858,5479,5136,4635,5829,5250,6806,8219
8,"Sherbrooke (CMA), Quebec",183635,185727,188063,189931,191580,193295,194838,196418,198786,201680,204653,206677,208523,209930,210873,213344,215386,218126,221311,224557,"Sherbrooke, Quebec",45.4041718,-71.8929107,2092,2336,1868,1649,1715,1543,1580,2368,2894,2973,2024,1846,1407,943,2471,2042,2740,3185
9,"Trois-Rivières (CMA), Quebec",143386,143127,143480,144012,144645,145685,147126,148502,150112,151903,153200,153902,154391,155188,155679,156813,158181,159170,160864,163287,"Trois-Rivières, Quebec",46.34298200000001,-72.5420716,-259,353,532,633,1040,1441,1376,1610,1791,1297,702,489,797,491,1134,1368,989,1694
10,"Montréal (CMA), Quebec",3626699,3663840,3693579,3725738,3754003,3787447,3820627,3859334,3907597,3953773,3994492,4031655,4066332,4093501,4109712,4140425,4193207,4264846,4333041,4364189,"Montréal, Quebec",45.5016889,-73.567256,37141,29739,32159,28265,33444,33180,38707,48263,46176,40719,37163,34677,27169,16211,30713,52782,71639,68195
11,"Ottawa - Gatineau (CMA), Ontario/Quebec",1127684,1144036,1159243,1170640,1181489,1189979,1205632,1225487,1246116,1268687,1288388,1303562,1315160,1326612,1337305,1358100,1384897,1411032,1438083,1461494,"Ottawa - Gatineau, Ontario/Quebec",45.4765446,-75.7012723,16352,15207,11397,10849,8490,15653,19855,20629,22571,19701,15174,11598,11452,10693,20795,26797,26135,27051
12,"Ottawa - Gatineau (CMA), Ontario part, Ontario",854593,867412,877683,884435,891423,896678,907573,921850,936513,952773,966571,978709,988064,997494,1006491,1023678,1047447,1069895,1092305,1111773,"Ottawa - Gatineau, Ontario part, Ontario",45.4765446,-75.7012723,12819,10271,6752,6988,5255,10895,14277,14663,16260,13798,12138,9355,9430,8997,17187,23769,22448,22410
13,"Ottawa - Gatineau (CMA), Quebec part, Quebec",273091,276624,281560,286205,290066,293301,298059,303637,309603,315914,321817,324853,327096,329118,330814,334422,337450,341137,345778,349721,"Ottawa - Gatineau, Quebec part, Quebec",45.4765446,-75.7012723,3533,4936,4645,3861,3235,4758,5578,5966,6311,5903,3036,2243,2022,1696,3608,3028,3687,4641
14,"Kingston (CMA), Ontario",152761,154796,156300,157133,157347,158214,158849,160029,161564,163013,164287,164353,163807,164019,164334,166004,169487,172702,174780,176184,"Kingston, Ontario",44.2311717,-76.4859544,2035,1504,833,214,867,635,1180,1535,1449,1274,66,-546,212,315,1670,3483,3215,2078
15,"Belleville (CMA), Ontario",99908,101013,101563,102621,103490,104194,104664,104767,104515,104415,104360,104718,104816,105079,105416,106282,107922,109626,111165,112980,"Belleville, Ontario",44.1627589,-77.3832315,1105,550,1058,869,704,470,103,-252,-100,-55,358,98,263,337,866,1640,1704,1539
16,"Peterborough (CMA), Ontario",115316,116673,117799,118722,119775,120631,120672,121059,121064,121921,122159,122458,122909,122705,123158,124845,127162,130256,131065,131939,"Peterborough, Ontario",44.309058,-78.31974699999999,1357,1126,923,1053,856,41,387,5,857,238,299,451,-204,453,1687,2317,3094,809
17,"Oshawa (CMA), Ontario",308611,315181,322922,330515,337654,344313,347901,352767,357274,362506,367052,372288,376783,380948,385258,391942,398742,405765,414422,423036,"Oshawa, Ontario",43.8970929,-78.86579119999999,6570,7741,7593,7139,6659,3588,4866,4507,5232,4546,5236,4495,4165,4310,6684,6800,7023,8657
18,"Toronto (CMA), Ontario",4882618,5002533,5081464,5162061,5241407,5334382,5415765,5501325,5588312,5681126,5768001,5852841,5931697,5998737,6045240,6125013,6217328,6337780,6462770,6555205,"Toronto, Ontario",43.653226,-79.3831843,119915,78931,80597,79346,92975,81383,85560,86987,92814,86875,84840,78856,67040,46503,79773,92315,120452,124990
19,"Hamilton (CMA), Ontario",689178,697790,705420,712186,717717,719331,721376,725665,730354,736875,741956,747678,752450,756928,761279,768982,777572,785214,795176,804691,"Hamilton, Ontario",43.2557206,-79.8711024,8612,7630,6766,5531,1614,2045,4289,4689,6521,5081,5722,4772,4478,4351,7703,8590,7642,9962
20,"St. Catharines - Niagara (CMA), Ontario",391844,394502,396817,399702,401750,404032,402845,401785,401517,402182,402623,404504,405870,407835,410971,416384,422407,428383,434090,437114,"St. Catharines - Niagara, Ontario",43.1593745,-79.2468626,2658,2315,2885,2048,2282,-1187,-1060,-268,665,441,1881,1366,1965,3136,5413,6023,5976,5707
21,"Kitchener - Cambridge - Waterloo (CMA), Ontario",446937,455446,462451,471321,479252,488325,492486,497508,501631,506907,512547,517359,521494,525299,530170,542034,553526,567853,581954,593882,"Kitchener - Cambridge - Waterloo, Ontario",43.4516395,-80.4925337,8509,7005,8870,7931,9073,4161,5022,4123,5276,5640,4812,4135,3805,4871,11864,11492,14327,14101
22,"Brantford (CMA), Ontario",128519,129761,131352,132978,134868,135499,136502,136995,137724,138488,139372,139847,140675,141413,142287,143871,145652,147361,149462,151566,"Brantford, Ontario",43.1393867,-80.2644254,1242,1591,1626,1890,631,1003,493,729,764,884,475,828,738,874,1584,1781,1709,2101
23,"Guelph (CMA), Ontario",128494,130572,132588,134836,137200,139303,140239,141550,142773,144324,145634,147971,149597,151684,153679,157088,159996,162574,165053,167509,"Guelph, Ontario",43.5448048,-80.24816659999999,2078,2016,2248,2364,2103,936,1311,1223,1551,1310,2337,1626,2087,1995,3409,2908,2578,2479
24,"London (CMA), Ontario",453101,458659,462722,467560,471563,475886,478557,481970,483908,486555,489086,491868,494151,497055,500624,509009,520146,532421,542349,551066,"London, Ontario",42.9849233,-81.2452768,5558,4063,4838,4003,4323,2671,3413,1938,2647,2531,2782,2283,2904,3569,8385,11137,12275,9928
25,"Windsor (CMA), Ontario",320950,326732,330416,333413,335398,336314,335457,332569,329634,328520,328295,329971,334502,336369,336222,337194,340999,348304,352962,356880,"Windsor, Ontario",42.3149367,-83.03636329999999,5782,3684,2997,1985,916,-857,-2888,-2935,-1114,-225,1676,4531,1867,-147,972,3805,7305,4658
26,"Barrie (CMA), Ontario",155328,161575,167800,173647,179259,184452,186501,188167,189558,191021,192639,194450,196369,198231,199869,203254,206729,210098,214391,218188,"Barrie, Ontario",44.38935559999999,-79.6903316,6247,6225,5847,5612,5193,2049,1666,1391,1463,1618,1811,1919,1862,1638,3385,3475,3369,4293
27,"Greater Sudbury (CMA), Ontario",164210,163810,164213,164622,165278,166751,167308,168016,168148,167687,167609,168205,168671,168522,168602,169136,169578,171452,171982,172462,"Greater Sudbury, Ontario",46.4917317,-80.99302899999999,-400,403,409,656,1473,557,708,132,-461,-78,596,466,-149,80,534,442,1874,530
28,"Thunder Bay (CMA), Ontario",126696,126776,127369,127619,127570,127090,125977,125440,125043,125157,124926,125031,125099,125097,124719,124840,125535,126095,126585,126861,"Thunder Bay, Ontario",48.3808951,-89.2476823,80,593,250,-49,-480,-1113,-537,-397,114,-231,105,68,-2,-378,121,695,560,490
29,"Winnipeg (CMA), Manitoba",695830,699855,703975,709714,712268,716043,719269,722848,729444,736073,745774,757053,766503,776923,785860,801177,817603,831823,844165,850056,"Winnipeg, Manitoba",49.895136,-97.13837439999999,4025,4120,5739,2554,3775,3226,3579,6596,6629,9701,11279,9450,10420,8937,15317,16426,14220,12342
30,"Regina (CMA), Saskatchewan",198077,197876,198853,199806,199943,201093,203144,206077,210464,214480,218657,225232,231044,235876,239403,245228,251167,256317,260865,263184,"Regina, Saskatchewan",50.4452112,-104.6188943,-201,977,953,137,1150,2051,2933,4387,4016,4177,6575,5812,4832,3527,5825,5939,5150,4548
31,"Saskatoon (CMA), Saskatchewan",232516,234263,235867,238203,239696,241931,246052,251481,257960,264665,271728,280765,287960,294216,299349,307367,315702,323148,330429,336614,"Saskatoon, Saskatchewan",52.157902,-106.6701577,1747,1604,2336,1493,2235,4121,5429,6479,6705,7063,9037,7195,6256,5133,8018,8335,7446,7281
32,"Lethbridge (CMA), Alberta",89689,91403,92924,94394,96150,98666,101924,104329,106433,108493,109774,111288,113439,116088,118428,120987,122403,124687,126917,128851,"Lethbridge, Alberta",49.6955856,-112.8451364,1714,1521,1470,1756,2516,3258,2405,2104,2060,1281,1514,2151,2649,2340,2559,1416,2284,2230
33,"Calgary (CMA), Alberta",977775,1007032,1028587,1051686,1085764,1124723,1155560,1187476,1220700,1240521,1263935,1300292,1344686,1386828,1414010,1438160,1458336,1483528,1514029,1543283,"Calgary, Alberta",51.04473309999999,-114.0718831,29257,21555,23099,34078,38959,30837,31916,33224,19821,23414,36357,44394,42142,27182,24150,20176,25192,30501
34,"Edmonton (CMA), Alberta",962390,984764,1001160,1017462,1042421,1074031,1104317,1131781,1163333,1183929,1205342,1234307,1271773,1312214,1338092,1364394,1390149,1415351,1442805,1468926,"Edmonton, Alberta",53.5461245,-113.4938229,22374,16396,16302,24959,31610,30286,27464,31552,20596,21413,28965,37466,40441,25878,26302,25755,25202,27454
35,"Kelowna (CMA), British Columbia",154210,156041,158495,161221,163765,167123,170995,175162,178330,181435,183619,186137,189130,193259,198305,203999,208476,213831,218454,222748,"Kelowna, British Columbia",49.8879519,-119.4960106,1831,2454,2726,2544,3358,3872,4167,3168,3105,2184,2518,2993,4129,5046,5694,4477,5355,4623
36,"Abbotsford - Mission (CMA), British Columbia",153905,155184,156739,159256,161332,164477,166354,168561,170762,172753,174304,176526,178496,180615,183864,189040,193390,198060,202432,204265,"Abbotsford - Mission, British Columbia",49.1329272,-122.3261603,1279,1555,2517,2076,3145,1877,2207,2201,1991,1551,2222,1970,2119,3249,5176,4350,4670,4372
37,"Vancouver (CMA), British Columbia",2074568,2098557,2116185,2134020,2159646,2188743,2216948,2253672,2301469,2344847,2374642,2418938,2459426,2507414,2544484,2582202,2616908,2658590,2706793,2737698,"Vancouver, British Columbia",49.2827291,-123.1207375,23989,17628,17835,25626,29097,28205,36724,47797,43378,29795,44296,40488,47988,37070,37718,34706,41682,48203
38,"Victoria (CMA), British Columbia",325732,327861,330032,332132,335240,339693,342052,344394,348064,351150,352050,358426,364837,370234,376036,384632,390666,396840,403455,408883,"Victoria, British Columbia",48.4284207,-123.3656444,2129,2171,2100,3108,4453,2359,2342,3670,3086,900,6376,6411,5397,5802,8596,6034,6174,6615
39,"All census agglomerations, Canada",3946285,3964161,3991964,4023509,4054482,4081694,4114724,4150787,4180456,4211504,4240925,4278901,4310124,4341356,4364838,4399488,4437549,4483865,4526207,4562743,"All census agglomerations, Canada",45.50697479999999,-73.5624491,17876,27803,31545,30973,27212,33030,36063,29669,31048,29421,37976,31223,31232,23482,34650,38061,46316,42342
40,"Bay Roberts (CA), Newfoundland and Labrador",10692,10681,10685,10727,10696,10622,10605,10694,10833,10989,11069,11070,11087,11154,11227,11284,11337,11271,11209,11182,"Bay Roberts, Newfoundland and Labrador",47.5820518,-53.27985229999999,-11,4,42,-31,-74,-17,89,139,156,80,1,17,67,73,57,53,-66,-62
41,"Grand Falls-Windsor (CA), Newfoundland and Labrador",13611,13669,13768,13772,13718,13693,13605,13609,13743,13885,13973,14068,14124,14286,14341,14421,14384,14354,14283,14250,"Grand Falls-Windsor, Newfoundland and Labrador",48.9276687,-55.6575025,58,99,4,-54,-25,-88,4,134,142,88,95,56,162,55,80,-37,-30,-71
42,"Gander (CA), Newfoundland and Labrador",11468,11548,11674,11714,11700,11770,11907,12345,12459,12713,12938,13142,13214,13310,13418,13507,13606,13631,13502,13448,"Gander, Newfoundland and Labrador",48.954408,-54.6103488,80,126,40,-14,70,137,438,114,254,225,204,72,96,108,89,99,25,-129
43,"Corner Brook (CA), Newfoundland and Labrador",31056,30955,31048,31199,31408,31362,31340,31342,31595,31810,32009,32098,32348,32333,32397,32498,32360,32124,32037,31936,"Corner Brook, Newfoundland and Labrador",48.9489967,-57.95027260000001,-101,93,151,209,-46,-22,2,253,215,199,89,250,-15,64,101,-138,-236,-87
44,"Charlottetown (CA), Prince Edward Island",59815,60049,60345,60708,61050,61454,61591,62433,63777,65292,67616,68188,68159,68692,69480,71533,74485,76649,79092,80347,"Charlottetown, Prince Edward Island",46.23824,-63.13107040000001,234,296,363,342,404,137,842,1344,1515,2324,572,-29,533,788,2053,2952,2164,2443
45,"Summerside (CA), Prince Edward Island",16424,16454,16478,16511,16486,16371,16473,16591,16631,16788,16858,17009,17048,16970,16909,16955,17103,17493,17831,18042,"Summerside, Prince Edward Island",46.39337769999999,-63.79023309999999,30,24,33,-25,-115,102,118,40,157,70,151,39,-78,-61,46,148,390,338
46,"Kentville (CA), Nova Scotia",25862,25983,26195,26382,26564,26650,26594,26673,26763,26856,26933,27010,26812,26774,26639,26754,27015,27511,27815,28196,"Kentville, Nova Scotia",45.0769115,-64.4944735,121,212,187,182,86,-56,79,90,93,77,77,-198,-38,-135,115,261,496,304
47,"Truro (CA), Nova Scotia",45522,45791,46092,46266,46275,46226,46297,46484,46790,46802,46913,46929,46733,46463,46323,46588,46497,46629,46859,47031,"Truro, Nova Scotia",45.3657733,-63.28694069999999,269,301,174,9,-49,71,187,306,12,111,16,-196,-270,-140,265,-91,132,230
48,"New Glasgow (CA), Nova Scotia",37734,37550,37570,37547,37455,37172,36765,36571,36594,36621,36574,36303,35957,35661,35282,35053,34958,34863,34843,34897,"New Glasgow, Nova Scotia",45.5871702,-62.6451191,-184,20,-23,-92,-283,-407,-194,23,27,-47,-271,-346,-296,-379,-229,-95,-95,-20
49,"Cape Breton (CA), Nova Scotia",112044,110942,110373,110397,109020,108217,106827,105817,105057,104473,103646,103122,102265,101593,100697,100359,99638,99553,101014,100711,"Cape Breton, Nova Scotia",46.2486851,-60.851817,-1102,-569,24,-1377,-803,-1390,-1010,-760,-584,-827,-524,-857,-672,-896,-338,-721,-85,1461
50,"Fredericton (CA), New Brunswick",88455,89437,90235,90978,91498,92589,93391,94586,96273,97869,99338,100362,101494,102122,102896,104387,106034,107761,109753,111024,"Fredericton, New Brunswick",45.9635895,-66.6431151,982,798,743,520,1091,802,1195,1687,1596,1469,1024,1132,628,774,1491,1647,1727,1992
51,"Bathurst (CA), New Brunswick",34433,34050,33733,33458,33230,32998,32735,32509,32367,32235,31973,31952,31834,31675,31673,31688,31650,31597,31682,31691,"Bathurst, New Brunswick",47.6183507,-65.6513358,-383,-317,-275,-228,-232,-263,-226,-142,-132,-262,-21,-118,-159,-2,15,-38,-53,85
52,"Miramichi (CA), New Brunswick",30500,30250,30065,29899,29692,29328,29054,28768,28503,28383,28149,28216,28168,28132,28004,28033,27965,27894,27935,27997,"Miramichi, New Brunswick",47.0295709,-65.50590609999999,-250,-185,-166,-207,-364,-274,-286,-265,-120,-234,67,-48,-36,-128,29,-68,-71,41
53,"Edmundston (CA), New Brunswick",25692,25581,25368,25214,24993,24438,24295,24141,24023,23973,23891,24000,23894,23895,23915,23963,23996,23960,23895,23778,"Edmundston, New Brunswick",47.3690127,-68.32667409999999,-111,-213,-154,-221,-555,-143,-154,-118,-50,-82,109,-106,1,20,48,33,-36,-65
55,"Campbellton (CA), New Brunswick part, New Brunswick",15668,15372,15240,14998,14816,14592,14444,14325,14187,14105,14040,13860,13689,13538,13473,13356,13259,13126,13013,12925,"Campbellton, New Brunswick part, New Brunswick",48.007399,-66.67220569999999,-296,-132,-242,-182,-224,-148,-119,-138,-82,-65,-180,-171,-151,-65,-117,-97,-133,-113
56,"Campbellton (CA), Quebec part, Quebec",3008,3004,3012,3015,3057,3091,3148,3206,3276,3320,3327,3267,3191,3110,3036,2918,2921,2950,2966,2976,"Campbellton, Quebec part, Quebec",46.8367655,-71.2724104,-4,8,3,42,34,57,58,70,44,7,-60,-76,-81,-74,-118,3,29,16
57,"Matane (CA), Quebec",19203,18997,18811,18748,18672,18792,18763,18726,18575,18512,18459,18458,18325,18186,17968,17986,17923,17795,17669,17626,"Matane, Quebec",48.8445157,-67.5305758,-206,-186,-63,-76,120,-29,-37,-151,-63,-53,-1,-133,-139,-218,18,-63,-128,-126
58,"Rimouski (CA), Quebec",51708,51642,51781,51855,51897,52039,52360,52793,53008,53482,54236,54645,54773,55108,55343,55558,55658,55785,56161,56394,"Rimouski, Quebec",48.4389803,-68.5349704,-66,139,74,42,142,321,433,215,474,754,409,128,335,235,215,100,127,376
59,"Rivière-du-Loup (CA), Quebec",26666,26765,27008,27249,27526,27825,28244,28449,28770,28977,29221,29169,29299,29203,29024,29004,29237,29459,29630,29737,"Rivière-du-Loup, Quebec",47.835957,-69.5359854,99,243,241,277,299,419,205,321,207,244,-52,130,-96,-179,-20,233,222,171
60,"Baie-Comeau (CA), Quebec",30503,30169,30076,30014,29748,29494,29220,28870,28788,28640,28690,28749,28640,28463,28113,27725,27542,27179,26966,26776,"Baie-Comeau, Quebec",49.2212971,-68.1503944,-334,-93,-62,-266,-254,-274,-350,-82,-148,50,59,-109,-177,-350,-388,-183,-363,-213
61,"Alma (CA), Quebec",32758,32667,32338,32282,32112,32076,32163,32485,32746,33005,33268,33266,33218,33162,33008,32934,32911,32784,32918,33014,"Alma, Quebec",48.5504607,-71.6527704,-91,-329,-56,-170,-36,87,322,261,259,263,-2,-48,-56,-154,-74,-23,-127,134
62,"Dolbeau-Mistassini (CA), Quebec",16654,16453,16246,16167,16189,16109,15966,15977,16017,15869,15910,15915,15863,15813,15726,15648,15518,15541,15462,15427,"Dolbeau-Mistassini, Quebec",48.881683,-72.2321138,-201,-207,-79,22,-80,-143,11,40,-148,41,5,-52,-50,-87,-78,-130,23,-79
63,"Sept-Îles (CA), Quebec",28114,27808,27774,27913,27936,28059,28143,28291,28385,28463,28805,28993,29184,29175,28842,28584,28325,28300,28156,28208,"Sept-Îles, Quebec",50.21329679999999,-66.37579199999999,-306,-34,139,23,123,84,148,94,78,342,188,191,-9,-333,-258,-259,-25,-144
64,"Sainte-Marie (CA), Quebec",11551,11609,11574,11645,11583,11701,11963,12193,12513,12785,13024,13131,13370,13480,13613,13621,13740,13815,13615,13265,"Sainte-Marie, Quebec",46.4390284,-71.0213182,58,-35,71,-62,118,262,230,320,272,239,107,239,110,133,8,119,75,-200
65,"Saint-Georges (CA), Quebec",28729,28971,29108,29388,29651,29915,30178,30462,30787,31084,31519,31778,31965,32210,32476,32666,32851,33259,33519,33678,"Saint-Georges, Quebec",46.1229184,-70.670352,242,137,280,263,264,263,284,325,297,435,259,187,245,266,190,185,408,260
66,"Thetford Mines (CA), Quebec",29858,29579,29241,29417,29278,29136,28947,28866,28941,28949,29077,28933,28768,28630,28479,28500,28647,28731,28697,28878,"Thetford Mines, Quebec",46.1028329,-71.3055522,-279,-338,176,-139,-142,-189,-81,75,8,128,-144,-165,-138,-151,21,147,84,-34
67,"Cowansville (CA), Quebec",12314,12313,12406,12382,12378,12264,12272,12332,12360,12396,12613,12862,13105,13313,13460,13740,14047,14284,14660,15017,"Cowansville, Quebec",45.2062926,-72.7471405,-1,93,-24,-4,-114,8,60,28,36,217,249,243,208,147,280,307,237,376
68,"Victoriaville (CA), Quebec",42040,42390,42847,42982,43164,43536,44264,44981,45455,46041,46819,47383,47896,48545,48841,49312,49662,50172,50462,50779,"Victoriaville, Quebec",46.0556724,-71.95895589999999,350,457,135,182,372,728,717,474,586,778,564,513,649,296,471,350,510,290
69,"Shawinigan (CA), Quebec",56991,56473,56338,56333,56258,56176,56128,55860,55471,55145,54775,54671,54610,54481,54261,54293,54265,54314,54458,54940,"Shawinigan, Quebec",46.5618559,-72.74352540000001,-518,-135,-5,-75,-82,-48,-268,-389,-326,-370,-104,-61,-129,-220,32,-28,49,144
70,"Drummondville (CA), Quebec",82058,82594,83647,84569,85688,86487,87308,88621,89795,90964,92158,93060,93889,94717,95527,96594,97851,98817,99738,100821,"Drummondville, Quebec",45.8802909,-72.4842824,536,1053,922,1119,799,821,1313,1174,1169,1194,902,829,828,810,1067,1257,966,921
71,"Granby (CA), Quebec",70890,71745,72652,73534,74651,75560,76543,77479,78667,80316,81660,82450,83264,83988,84545,85430,86523,87570,88843,90459,"Granby, Quebec",45.40322889999999,-72.7340662,855,907,882,1117,909,983,936,1188,1649,1344,790,814,724,557,885,1093,1047,1273
72,"Saint-Hyacinthe (CA), Quebec",54806,54973,55200,55077,55371,55377,55872,56255,56545,57116,57324,58066,58515,59060,59396,59871,60126,60293,60757,61424,"Saint-Hyacinthe, Quebec",45.6306875,-72.956339,167,227,-123,294,6,495,383,290,571,208,742,449,545,336,475,255,167,464
73,"Sorel-Tracy (CA), Quebec",41686,41440,41479,41398,41331,41102,41307,41432,41504,41639,41784,41698,41659,41776,41705,41706,41629,41614,41738,42112,"Sorel-Tracy, Quebec",46.042825,-73.112302,-246,39,-81,-67,-229,205,125,72,135,145,-86,-39,117,-71,1,-77,-15,124
74,"Joliette (CA), Quebec",40259,40825,41598,42462,43297,43639,44188,44911,45867,46824,47335,47849,48668,49271,49489,49507,50100,50741,51507,52261,"Joliette, Quebec",46.014012,-73.41779609999999,566,773,864,835,342,549,723,956,957,511,514,819,603,218,18,593,641,766
75,"Salaberry-de-Valleyfield (CA), Quebec",39796,39850,39994,39987,39982,39888,40020,40070,40156,40190,40413,40341,40543,40637,40818,40911,41297,41651,42238,42854,"Salaberry-de-Valleyfield, Quebec",45.2500909,-74.1330862,54,144,-7,-5,-94,132,50,86,34,223,-72,202,94,181,93,386,354,587
76,"Lachute (CA), Quebec",11877,11820,11813,11867,11936,11900,11955,12070,12222,12423,12659,12738,12768,12762,12932,12881,12905,13049,13270,13472,"Lachute, Quebec",45.6520586,-74.3398015,-57,-7,54,69,-36,55,115,152,201,236,79,30,-6,170,-51,24,144,221
77,"Val-d'Or (CA), Quebec",32971,32626,32579,32589,32535,32534,32900,33157,33289,33352,33585,33903,34033,33987,33969,34055,34095,34234,34342,34513,"Val-d'Or, Quebec",48.0987106,-77.7967676,-345,-47,10,-54,-1,366,257,132,63,233,318,130,-46,-18,86,40,139,108
78,"Rouyn-Noranda (CA), Quebec",40326,40000,39768,39712,39981,40273,40387,40615,40870,41099,41460,41669,41914,42146,42223,42554,42849,42963,43077,43113,"Rouyn-Noranda, Quebec",48.2342362,-79.01878359999999,-326,-232,-56,269,292,114,228,255,229,361,209,245,232,77,331,295,114,114
80,"Hawkesbury (CA), Ontario part, Ontario",10702,10829,10986,11103,11189,11201,11098,11015,10931,10884,10776,10826,10854,10746,10640,10472,10599,10622,10608,10585,"Hawkesbury, Ontario part, Ontario",45.6071264,-74.60418899999999,127,157,117,86,12,-103,-83,-84,-47,-108,50,28,-108,-106,-168,127,23,-14
81,"Hawkesbury (CA), Quebec part, Quebec",1341,1356,1362,1344,1345,1415,1386,1399,1478,1520,1598,1600,1678,1690,1706,1717,1800,1811,1842,1846,"Hawkesbury, Quebec part, Quebec",45.6069507,-74.5945005,15,6,-18,1,70,-29,13,79,42,78,2,78,12,16,11,83,11,31
82,"Cornwall (CA), Ontario",59876,60154,60585,60725,60564,60442,60340,60298,60320,60385,60448,60559,60379,60562,60790,61165,61443,61911,62054,62225,"Cornwall, Ontario",45.0212762,-74.730345,278,431,140,-161,-122,-102,-42,22,65,63,111,-180,183,228,375,278,468,143
83,"Arnprior (CA), Ontario",14570,14633,14744,14832,14839,14888,15062,15265,15484,15695,15891,16089,16181,16284,16310,16357,16662,16970,17292,17588,"Arnprior, Ontario",45.4347445,-76.3518469,63,111,88,7,49,174,203,219,211,196,198,92,103,26,47,305,308,322
84,"Carleton Place (CA), Ontario",27898,28146,28316,28445,28546,28580,28778,28935,29198,29657,29964,30363,30772,31277,31762,32271,33397,34661,35840,36916,"Carleton Place, Ontario",45.14060300000001,-76.146546,248,170,129,101,34,198,157,263,459,307,399,409,505,485,509,1126,1264,1179
85,"Brockville (CA), Ontario",40585,40696,40885,40915,40960,40976,40747,40567,40247,40170,39938,39352,39323,39360,39348,39503,39681,40020,40550,40912,"Brockville, Ontario",44.5895244,-75.68428580000001,111,189,30,45,16,-229,-180,-320,-77,-232,-586,-29,37,-12,155,178,339,530
86,"Pembroke (CA), Ontario",23073,23260,23522,23764,23894,24008,24241,24387,24457,24560,24645,24935,24799,24384,24067,23813,23897,23762,23565,23421,"Pembroke, Ontario",45.82665129999999,-77.1108826,187,262,242,130,114,233,146,70,103,85,290,-136,-415,-317,-254,84,-135,-197
87,"Petawawa (CA), Ontario",15121,15084,15120,15173,15200,15419,15700,15985,16187,16414,16664,16660,16997,17509,17692,17853,17998,18328,18796,19074,"Petawawa, Ontario",45.8982631,-77.2828772,-37,36,53,27,219,281,285,202,227,250,-4,337,512,183,161,145,330,468
88,"Cobourg (CA), Ontario",17844,18050,18311,18536,18723,18786,18783,18810,18828,18856,18964,19423,19542,19699,19846,19805,20020,20079,20026,20152,"Cobourg, Ontario",43.9593373,-78.1677363,206,261,225,187,63,-3,27,18,28,108,459,119,157,147,-41,215,59,-53
89,"Port Hope (CA), Ontario",16233,16348,16525,16678,16809,16904,16852,16778,16732,16661,16609,16561,16694,16821,16978,17161,17494,17683,17729,17731,"Port Hope, Ontario",43.9491784,-78.2934468,115,177,153,131,95,-52,-74,-46,-71,-52,-48,133,127,157,183,333,189,46
90,"Kawartha Lakes (CA), Ontario",72008,72934,74300,75345,76388,76876,76177,75958,75330,75090,74955,75517,75726,75931,76484,77296,78492,79532,80373,81042,"Kawartha Lakes, Ontario",44.5337469,-78.9006484,926,1366,1045,1043,488,-699,-219,-628,-240,-135,562,209,205,553,812,1196,1040,841
91,"Centre Wellington (CA), Ontario",25185,25611,26024,26490,26998,26965,26996,27077,27092,27252,27385,27639,27766,28080,28426,29008,29506,30324,30665,31092,"Centre Wellington, Ontario",43.7236325,-80.32131059999999,426,413,466,508,-33,31,81,15,160,133,254,127,314,346,582,498,818,341
92,"Ingersoll (CA), Ontario",11430,11554,11723,11864,12055,12208,12204,12263,12316,12393,12507,12665,12733,12788,12950,13128,13367,13694,13871,14029,"Ingersoll, Ontario",43.03816279999999,-80.88404899999999,124,169,141,191,153,-4,59,53,77,114,158,68,55,162,178,239,327,177
93,"Woodstock (CA), Ontario",34998,35389,35909,36331,36880,37215,37351,37735,37949,38393,38894,39972,40474,41185,41493,42104,43093,44342,45391,46464,"Woodstock, Ontario",43.1314966,-80.74716509999999,391,520,422,549,335,136,384,214,444,501,1078,502,711,308,611,989,1249,1049
94,"Tillsonburg (CA), Ontario",14593,14724,14903,15047,15240,15329,15341,15406,15449,15580,15686,16117,16133,16216,16168,16228,16647,16804,17220,17660,"Tillsonburg, Ontario",42.8658879,-80.7333175,131,179,144,193,89,12,65,43,131,106,431,16,83,-48,60,419,157,416
95,"Norfolk (CA), Ontario",63211,63669,64059,64500,64764,64775,64615,64776,64803,64809,64722,64434,64260,64482,65286,66064,67019,68922,70062,70489,"Norfolk, Ontario",42.7967232,-80.4136271,458,390,441,264,11,-160,161,27,6,-87,-288,-174,222,804,778,955,1903,1140
96,"Stratford (CA), Ontario",31042,31302,31600,31725,31736,31690,31662,31605,31652,31670,31703,31845,31923,31981,32145,32286,32771,33262,33574,33868,"Stratford, Ontario",43.3700007,-80.98222860000001,260,298,125,11,-46,-28,-57,47,18,33,142,78,58,164,141,485,491,312
97,"Chatham-Kent (CA), Ontario",111909,111618,111799,111785,112463,112357,111170,109964,108767,107512,106670,106000,105490,105149,104521,104771,105259,105756,106033,106620,"Chatham-Kent, Ontario",42.4048028,-82.19103779999999,-291,181,-14,678,-106,-1187,-1206,-1197,-1255,-842,-670,-510,-341,-628,250,488,497,277
98,"Leamington (CA), Ontario",48721,49844,50661,51392,51992,51710,51480,51212,51096,51212,51185,50631,50002,49693,50606,53640,53058,52038,52109,52649,"Leamington, Ontario",42.0531634,-82.5998874,1123,817,731,600,-282,-230,-268,-116,116,-27,-554,-629,-309,913,3034,-582,-1020,71
99,"Sarnia (CA), Ontario",99346,99686,99718,99707,99605,99595,99577,99584,99528,99588,99617,99549,99050,98801,98354,98139,98595,99821,100540,100985,"Sarnia, Ontario",42.974536,-82.4065901,340,32,-11,-102,-10,-18,7,-56,60,29,-68,-499,-249,-447,-215,456,1226,719
100,"Wasaga Beach (CA), Ontario",12899,13566,14213,14777,15263,15504,15972,16500,16972,17474,17964,18651,19245,19888,20488,21111,22054,22624,23088,23475,"Wasaga Beach, Ontario",44.5207419,-80.01606679999999,667,647,564,486,241,468,528,472,502,490,687,594,643,600,623,943,570,464
101,"Owen Sound (CA), Ontario",32829,32983,33210,33322,33395,33339,33215,33187,33093,33041,32868,32665,32628,32676,32617,32591,32887,33301,33626,34044,"Owen Sound, Ontario",44.5690305,-80.9405602,154,227,112,73,-56,-124,-28,-94,-52,-173,-203,-37,48,-59,-26,296,414,325
102,"Collingwood (CA), Ontario",16651,17029,17382,17659,17873,17900,18209,18621,18937,19356,19756,20456,20926,21317,21822,22390,22668,23222,23871,24539,"Collingwood, Ontario",44.50076869999999,-80.2169047,378,353,277,214,27,309,412,316,419,400,700,470,391,505,568,278,554,649
103,"Orillia (CA), Ontario",30221,30575,30916,31181,31404,31334,31374,31396,31330,31408,31423,31793,31700,32049,32118,31937,32577,32950,33474,34002,"Orillia, Ontario",44.6082465,-79.4196783,354,341,265,223,-70,40,22,-66,78,15,370,-93,349,69,-181,640,373,524
104,"Midland (CA), Ontario",34934,35485,36012,36429,36765,36657,36531,36498,36370,36333,36304,36132,36207,36286,36463,36812,38042,38817,39416,39971,"Midland, Ontario",44.74951600000001,-79.89219229999999,551,527,417,336,-108,-126,-33,-128,-37,-29,-172,75,79,177,349,1230,775,599
105,"North Bay (CA), Ontario",72962,73256,73460,73595,74091,74361,74134,74158,74133,74411,74461,74083,73560,73190,72786,72358,73190,73551,73609,73749,"North Bay, Ontario",46.3091152,-79.4608204,294,204,135,496,270,-227,24,-25,278,50,-378,-523,-370,-404,-428,832,361,58
106,"Elliot Lake (CA), Ontario",12322,12201,12127,12060,12010,11796,11763,11709,11613,11582,11512,11301,11107,10961,10897,10960,11144,11304,11364,11423,"Elliot Lake, Ontario",46.386179,-82.650941,-121,-74,-67,-50,-214,-33,-54,-96,-31,-70,-211,-194,-146,-64,63,184,160,60
107,"Timmins (CA), Ontario",45901,45321,44952,44820,44691,44606,44514,44343,44290,44361,44373,44323,44165,43782,43174,42922,42659,42550,42927,42948,"Timmins, Ontario",48.4758208,-81.3304953,-580,-369,-132,-129,-85,-92,-171,-53,71,12,-50,-158,-383,-608,-252,-263,-109,377
108,"Sault Ste. Marie (CA), Ontario",82691,82247,82200,82288,82592,82809,82874,82929,82583,82612,82450,82217,82012,81441,81087,80681,80204,80081,80650,81238,"Sault Ste. Marie, Ontario",46.5136494,-84.33575259999999,-444,-47,88,304,217,65,55,-346,29,-162,-233,-205,-571,-354,-406,-477,-123,569
109,"Kenora (CA), Ontario",16448,16408,16417,16316,16112,15733,15608,15619,15726,15756,15734,15699,15571,15602,15621,15553,15855,15869,15881,15772,"Kenora, Ontario",49.7670416,-94.4893924,-40,9,-101,-204,-379,-125,11,107,30,-22,-35,-128,31,19,-68,302,14,12
110,"Winkler (CA), Manitoba",19878,20306,20856,21462,22080,22824,23955,25115,26330,26899,27457,28217,28982,29506,30275,31317,31898,32719,33523,34325,"Winkler, Manitoba",49.1801103,-97.93894739999999,428,550,606,618,744,1131,1160,1215,569,558,760,765,524,769,1042,581,821,804
111,"Steinbach (CA), Manitoba",9517,9826,10135,10533,10944,11475,11952,12404,12950,13397,13984,14843,15688,16015,15531,16232,16256,16126,15810,15809,"Steinbach, Manitoba",49.5285279,-96.691092,309,309,398,411,531,477,452,546,447,587,859,845,327,-484,701,24,-130,-316
112,"Portage la Prairie (CA), Manitoba",13333,13282,13355,13573,13261,13064,13031,13062,13078,13210,13212,13158,13096,13222,13300,13630,13575,13532,13486,13495,"Portage la Prairie, Manitoba",49.9723205,-98.29032509999999,-51,73,218,-312,-197,-33,31,16,132,2,-54,-62,126,78,330,-55,-43,-46
113,"Brandon (CA), Manitoba",49250,49249,49600,50208,50710,51376,52027,53079,53888,55296,55927,56607,57256,58052,58873,59849,60867,61507,62452,63188,"Brandon, Manitoba",49.848471,-99.9500904,-1,351,608,502,666,651,1052,809,1408,631,680,649,796,821,976,1018,640,945
114,"Thompson (CA), Manitoba",13673,13742,13827,13938,13939,13936,13823,13697,13533,13500,13436,13484,13532,13688,13907,14187,14462,14483,14300,14092,"Thompson, Manitoba",55.7449251,-97.8508715,69,85,111,1,-3,-113,-126,-164,-33,-64,48,48,156,219,280,275,21,-183
115,"Yorkton (CA), Saskatchewan",17944,17926,17838,17893,17757,17807,17913,18193,18495,18632,18662,18942,19204,19401,19257,19477,19553,19602,19672,19489,"Yorkton, Saskatchewan",51.2174482,-102.4739331,-18,-88,55,-136,50,106,280,302,137,30,280,262,197,-144,220,76,49,70
116,"Moose Jaw (CA), Saskatchewan",34220,34141,34421,34602,34352,34074,34208,34597,34920,35072,35341,35557,35600,35696,35723,36108,36267,36336,35988,35732,"Moose Jaw, Saskatchewan",50.3915811,-105.5348562,-79,280,181,-250,-278,134,389,323,152,269,216,43,96,27,385,159,69,-348
117,"Swift Current (CA), Saskatchewan",16865,16737,16791,16913,16867,16937,17006,17286,17575,17936,18010,18215,18435,18635,18871,19099,19274,19392,19462,19386,"Swift Current, Saskatchewan",50.285069,-107.7971722,-128,54,122,-46,70,69,280,289,361,74,205,220,200,236,228,175,118,70
118,"North Battleford (CA), Saskatchewan",19056,18914,18783,18614,18340,18198,18357,18662,19047,19317,19381,19567,19802,19879,19935,20193,20092,19901,19638,19457,"North Battleford, Saskatchewan",52.7764752,-108.2974556,-142,-131,-169,-274,-142,159,305,385,270,64,186,235,77,56,258,-101,-191,-263
119,"Prince Albert (CA), Saskatchewan",43453,43236,43080,43079,42856,42672,43072,43691,44264,44726,44877,45044,45205,45190,45287,45673,46111,46109,46382,46609,"Prince Albert, Saskatchewan",53.2033494,-105.7530705,-217,-156,-1,-223,-184,400,619,573,462,151,167,161,-15,97,386,438,-2,273
120,"Estevan (CA), Saskatchewan",12377,12317,12314,12227,12210,12229,12450,12660,12929,13206,13398,13728,14138,14308,14167,14059,13846,13757,13716,13603,"Estevan, Saskatchewan",49.1390842,-102.9914806,-60,-3,-87,-17,19,221,210,269,277,192,330,410,170,-141,-108,-213,-89,-41
121,"Weyburn (CA), Saskatchewan",9770,9739,9738,9689,9655,9661,9767,10009,10280,10564,10770,10922,11090,11213,11203,11201,11261,11253,11196,11145,"Weyburn, Saskatchewan",49.6632836,-103.8532906,-31,-1,-49,-34,6,106,242,271,284,206,152,168,123,-10,-2,60,-8,-57
122,"Lloydminster (CA), Alberta/Saskatchewan",24777,25339,26064,26720,27380,28087,29142,29909,30737,31418,32114,33257,34582,35527,35688,35729,35727,36113,36421,36473,"Lloydminster, Alberta/Saskatchewan",53.2779625,-110.0061451,562,725,656,660,707,1055,767,828,681,696,1143,1325,945,161,41,-2,386,308
123,"Lloydminster (CA), Alberta part, Alberta",13608,14175,14732,15205,15815,16560,17297,17769,18189,18484,18707,19189,19854,20211,20198,20162,20068,20247,20375,20456,"Lloydminster, Alberta part, Alberta",53.2779625,-110.0061451,567,557,473,610,745,737,472,420,295,223,482,665,357,-13,-36,-94,179,128
124,"Lloydminster (CA), Saskatchewan part, Saskatchewan",11169,11164,11332,11515,11565,11527,11845,12140,12548,12934,13407,14068,14728,15316,15490,15567,15659,15866,16046,16017,"Lloydminster, Saskatchewan part, Saskatchewan",53.2779625,-110.0061451,-5,168,183,50,-38,318,295,408,386,473,661,660,588,174,77,92,207,180
125,"Medicine Hat (CA), Alberta",63363,64610,65779,67396,69305,71224,72900,74095,74889,75040,75249,76139,76951,77570,78162,78380,78573,78962,79124,79450,"Medicine Hat, Alberta",50.0291676,-110.7034049,1247,1169,1617,1909,1919,1676,1195,794,151,209,890,812,619,592,218,193,389,162
126,"Brooks (CA), Alberta",22290,22391,22479,22590,22820,23291,23742,24142,24234,24428,24246,24997,25256,25391,25309,25311,25082,24880,25098,25246,"Brooks, Alberta",50.5657456,-111.8978329,101,88,111,230,471,451,400,92,194,-182,751,259,135,-82,2,-229,-202,218
127,"Okotoks (CA), Alberta",12081,13323,14423,15558,16909,17916,19363,20907,22525,24012,25417,26620,27651,28549,29147,29664,29943,30136,30622,31118,"Okotoks, Alberta",50.7254764,-113.974928,1242,1100,1135,1351,1007,1447,1544,1618,1487,1405,1203,1031,898,598,517,279,193,486
128,"High River (CA), Alberta",9611,9950,10215,10494,10876,11081,11458,11993,12466,12895,13320,13777,13869,13618,13806,13972,14133,14140,14152,14178,"High River, Alberta",50.5765993,-113.8719638,339,265,279,382,205,377,535,473,429,425,457,92,-251,188,166,161,7,12
129,"Strathmore (CA), Alberta",7933,8474,8964,9403,9952,10694,11260,11662,12086,12442,12732,13015,13443,13757,13930,14086,14055,14123,14206,14279,"Strathmore, Alberta",51.0378158,-113.4004199,541,490,439,549,742,566,402,424,356,290,283,428,314,173,156,-31,68,83
130,"Canmore (CA), Alberta",11078,11427,11778,12087,12381,12460,12615,12747,12810,12778,12735,13214,13643,14051,14243,14592,14865,15062,15306,15458,"Canmore, Alberta",51.0899934,-115.3441856,349,351,309,294,79,155,132,63,-32,-43,479,429,408,192,349,273,197,244
131,"Red Deer (CA), Alberta",70336,73101,75774,78570,82241,86636,89085,90978,92552,93272,94124,96878,99564,101734,102809,103481,103302,104314,105115,105767,"Red Deer, Alberta",52.268975,-113.8115599,2765,2673,2796,3671,4395,2449,1893,1574,720,852,2754,2686,2170,1075,672,-179,1012,801
132,"Sylvan Lake (CA), Alberta",8236,8756,9273,9815,10502,11209,11721,12156,12565,12947,13316,14029,14692,15181,15655,15791,15648,15752,15863,15990,"Sylvan Lake, Alberta",52.3065443,-114.0973312,520,517,542,687,707,512,435,409,382,369,713,663,489,474,136,-143,104,111
133,"Lacombe (CA), Alberta",9620,9843,10060,10296,10646,11106,11391,11604,11881,11940,12124,12579,12920,13227,13368,13350,13241,13254,13274,13364,"Lacombe, Alberta",52.4684651,-113.7306644,223,217,236,350,460,285,213,277,59,184,455,341,307,141,-18,-109,13,20
134,"Camrose (CA), Alberta",15304,15517,15700,15783,15942,16171,16705,17057,17428,17648,17857,18176,18409,18859,19155,19191,19082,19115,19014,18980,"Camrose, Alberta",53.0179364,-112.8259861,213,183,83,159,229,534,352,371,220,209,319,233,450,296,36,-109,33,-101
135,"Cold Lake (CA), Alberta",11866,11967,12092,12149,12327,12515,12936,13387,13777,14146,14494,14796,15123,15410,15352,15488,15048,14841,14517,14397,"Cold Lake, Alberta",54.4642591,-110.1732522,101,125,57,178,188,421,451,390,369,348,302,327,287,-58,136,-440,-207,-324
136,"Grande Prairie (CA), Alberta",38786,40617,42211,44184,46884,50038,52372,54019,55499,56583,58273,60548,62342,64246,65513,65044,65298,67403,68295,69025,"Grande Prairie, Alberta",55.17071259999999,-118.7884464,1831,1594,1973,2700,3154,2334,1647,1480,1084,1690,2275,1794,1904,1267,-469,254,2105,892
137,"Wood Buffalo (CA), Alberta",43832,46651,49162,51160,52623,55034,58974,61635,64403,67280,70642,74259,78260,80468,79016,75302,73493,74408,75376,76263,"Wood Buffalo, Alberta",57.1859727,-111.6366059,2819,2511,1998,1463,2411,3940,2661,2768,2877,3362,3617,4001,2208,-1452,-3714,-1809,915,968
138,"Wetaskiwin (CA), Alberta",11412,11550,11638,11734,11927,12056,12252,12422,12598,12722,12897,13095,13173,13161,12880,12994,13122,13146,13089,12977,"Wetaskiwin, Alberta",52.9688194,-113.3660794,138,88,96,193,129,196,170,176,124,175,198,78,-12,-281,114,128,24,-57
139,"Cranbrook (CA), British Columbia",25277,25109,24935,24750,24659,24762,25080,25369,25522,25502,25461,25698,25984,26327,26768,27073,27306,27550,27871,27938,"Cranbrook, British Columbia",49.5129678,-115.7694002,-168,-174,-185,-91,103,318,289,153,-20,-41,237,286,343,441,305,233,244,321
140,"Nelson (CA), British Columbia",17488,17260,17120,17086,17083,17187,17473,17773,17992,18175,18310,18339,18502,18614,18882,19122,19209,19412,19592,19709,"Nelson, British Columbia",49.4928119,-117.2948343,-228,-140,-34,-3,104,286,300,219,183,135,29,163,112,268,240,87,203,180
141,"Penticton (CA), British Columbia",41330,41559,41772,42134,42285,42251,42607,42967,42913,42855,42926,43220,43552,43910,44343,45017,45540,46020,46486,46885,"Penticton, British Columbia",49.4991381,-119.5937077,229,213,362,151,-34,356,360,-54,-58,71,294,332,358,433,674,523,480,466
142,"Vernon (CA), British Columbia",53761,54112,54753,55467,56463,56837,57637,58582,59157,59430,59477,60128,60484,61479,62421,63615,64510,65032,65869,66966,"Vernon, British Columbia",50.2670137,-119.2720107,351,641,714,996,374,800,945,575,273,47,651,356,995,942,1194,895,522,837
143,"Salmon Arm (CA), British Columbia",16021,16054,16162,16223,16409,16623,17061,17417,17628,17843,17912,17815,17840,17921,18273,18526,18872,19078,19343,19699,"Salmon Arm, British Columbia",50.7001034,-119.2838443,33,108,61,186,214,438,356,211,215,69,-97,25,81,352,253,346,206,265
144,"Kamloops (CA), British Columbia",92786,92547,92843,93501,94358,95606,97468,99272,100129,100586,100830,102073,103413,104711,106093,108213,110509,114055,115675,116896,"Kamloops, British Columbia",50.674522,-120.3272675,-239,296,658,857,1248,1862,1804,857,457,244,1243,1340,1298,1382,2120,2296,3546,1620
145,"Chilliwack (CA), British Columbia",79828,81125,82581,84521,86150,86854,88694,90753,92548,94398,95862,97595,98991,100626,102876,106006,108962,112437,114555,116626,"Chilliwack, British Columbia",49.1579401,-121.9514666,1297,1456,1940,1629,704,1840,2059,1795,1850,1464,1733,1396,1635,2250,3130,2956,3475,2118
146,"Squamish (CA), British Columbia",15022,15297,15546,15796,15886,15781,16102,16629,17052,17487,17980,18410,18956,19594,20212,20910,21528,22126,22778,23335,"Squamish, British Columbia",49.7016339,-123.1558121,275,249,250,90,-105,321,527,423,435,493,430,546,638,618,698,618,598,652
147,"Duncan (CA), British Columbia",40483,40593,41057,41621,42091,42465,42760,43246,43575,43829,43917,43948,44342,44839,45312,46129,46961,47630,48127,48495,"Duncan, British Columbia",48.7786908,-123.7079417,110,464,564,470,374,295,486,329,254,88,31,394,497,473,817,832,669,497
148,"Nanaimo (CA), British Columbia",89549,90083,90914,92294,93453,95019,96089,97394,98184,99261,99996,101238,102696,104754,106959,109193,111163,113540,115682,117144,"Nanaimo, British Columbia",49.1658836,-123.9400648,534,831,1380,1159,1566,1070,1305,790,1077,735,1242,1458,2058,2205,2234,1970,2377,2142
149,"Parksville (CA), British Columbia",25153,25506,25917,26452,26878,26942,27293,27589,27728,27922,27938,28121,28286,28582,29088,29637,30471,30576,30875,31144,"Parksville, British Columbia",49.3193375,-124.3136411,353,411,535,426,64,351,296,139,194,16,183,165,296,506,549,834,105,299
150,"Port Alberni (CA), British Columbia",26401,26066,26039,26004,26133,25955,25877,25932,25996,26003,25838,25663,25513,25544,25692,26045,26254,26532,26821,27060,"Port Alberni, British Columbia",49.2338882,-124.8055494,-335,-27,-35,129,-178,-78,55,64,7,-165,-175,-150,31,148,353,209,278,289
151,"Courtenay (CA), British Columbia",46379,46588,47234,48243,49189,49788,50551,51331,51596,52010,52521,53054,53287,53886,55007,56066,57242,58376,59320,60120,"Courtenay, British Columbia",49.6841391,-124.9904494,209,646,1009,946,599,763,780,265,414,511,533,233,599,1121,1059,1176,1134,944
152,"Campbell River (CA), British Columbia",34694,34480,34598,34994,35364,35677,36038,36407,36489,36601,36726,36993,37377,37854,38488,39398,40163,40985,41568,42166,"Campbell River, British Columbia",50.03312260000001,-125.2733353,-214,118,396,370,313,361,369,82,112,125,267,384,477,634,910,765,822,583
153,"Powell River (CA), British Columbia",17282,16993,16831,16775,16812,16894,17038,17093,17019,16989,16882,16863,16953,17045,17071,17342,17460,17537,17566,17628,"Powell River, British Columbia",49.8352352,-124.5247061,-289,-162,-56,37,82,144,55,-74,-30,-107,-19,90,92,26,271,118,77,29
154,"Williams Lake (CA), British Columbia",20630,20153,19772,19490,19336,19327,19384,19432,19209,18987,18841,18858,18816,19044,18992,19049,19009,19211,19308,19391,"Williams Lake, British Columbia",52.1416736,-122.1416885,-477,-381,-282,-154,-9,57,48,-223,-222,-146,17,-42,228,-52,57,-40,202,97
155,"Quesnel (CA), British Columbia",25355,24664,24082,23609,23284,23096,23474,23827,23870,23954,23969,23964,23944,23857,23930,24056,24149,24351,24406,24486,"Quesnel, British Columbia",52.9817372,-122.4949058,-691,-582,-473,-325,-188,378,353,43,84,15,-5,-20,-87,73,126,93,202,55
156,"Prince Rupert (CA), British Columbia",15896,15376,14892,14469,14097,13743,13654,13658,13545,13466,13308,13312,13302,13291,13297,13243,13328,13412,13486,13606,"Prince Rupert, British Columbia",54.3150367,-130.3208187,-520,-484,-423,-372,-354,-89,4,-113,-79,-158,4,-10,-11,6,-54,85,84,74
157,"Terrace (CA), British Columbia",17373,16900,16594,16333,16075,15845,15847,15974,16056,15976,15873,15974,16135,16343,16385,16403,16404,16656,16938,17267,"Terrace, British Columbia",54.5181925,-128.6031539,-473,-306,-261,-258,-230,2,127,82,-80,-103,101,161,208,42,18,1,252,282
158,"Prince George (CA), British Columbia",88480,87021,85664,85222,85414,85933,86694,86682,85902,85890,86230,86842,87834,88534,89455,90623,91993,93706,94983,96015,"Prince George, British Columbia",53.9170641,-122.7496693,-1459,-1357,-442,192,519,761,-12,-780,-12,340,612,992,700,921,1168,1370,1713,1277
159,"Dawson Creek (CA), British Columbia",11173,11165,11205,11244,11282,11389,11643,11712,11808,11801,11891,12191,12355,12565,12729,12810,12998,13211,13455,13509,"Dawson Creek, British Columbia",55.75962740000001,-120.2376623,-8,40,39,38,107,254,69,96,-7,90,300,164,210,164,81,188,213,244
160,"Fort St. John (CA), British Columbia",24120,24357,24709,25059,25457,26195,26565,26702,26879,26902,27272,28315,28901,29567,29890,29808,29802,29985,29883,29885,"Fort St. John, British Columbia",56.252423,-120.846409,237,352,350,398,738,370,137,177,23,370,1043,586,666,323,-82,-6,183,-102
161,"Whitehorse (CA), Yukon",22507,22677,23180,23620,24000,24354,24624,25119,25694,26483,27230,28055,28340,28973,29551,30322,31248,32072,32854,33480,"Whitehorse, Yukon",60.7211871,-135.0568448,170,503,440,380,354,270,495,575,789,747,825,285,633,578,771,926,824,782
162,"Yellowknife (CA), Northwest Territories",18150,18562,19114,19429,19430,19567,19678,19791,19733,19828,20033,20189,20232,20291,20649,21009,21407,21682,22011,22290,"Yellowknife, Northwest Territories",62.4539717,-114.3717887,412,552,315,1,137,111,113,-58,95,205,156,43,59,358,360,398,275,329
